[{
  "City": "Lima",
  "Name": "Jorge Chavez Intl",
  "Country": "Peru",
  "Longitude": "-77.114319",
  "Latitude": "-12.021889",
  "Id": "2789",
  "destinations": [
    "2560",
    "1229",
    "7252",
    "4026",
    "4027"
  ]
},
{
  "City": "Foz Do Iguacu",
  "Name": "Cataratas Intl",
  "Country": "Brazil",
  "Longitude": "-54.487206",
  "Latitude": "-25.59615",
  "Id": "2554",
  "destinations": [
    "2560"
  ]
},
{
  "City": "Rio De Janeiro",
  "Name": "Galeao Antonio Carlos Jobim",
  "Country": "Brazil",
  "Longitude": "-43.243647",
  "Latitude": "-22.808903",
  "Id": "2560",
  "destinations": [
    "2554",
    "1229",
    "2789"
  ]
},
{
  "City": "Madrid",
  "Name": "Barajas",
  "Country": "Spain",
  "Longitude": "-3.566764",
  "Latitude": "40.493556",
  "Id": "1229",
  "destinations": [
    "2789",
    "2560",
    "6972"
  ]
},
{
  "City": "Postville",
  "Name": "Postville Airport",
  "Country": "Canada",
  "Longitude": "-59.785278",
  "Latitude": "54.910278",
  "Id": "7252",
  "destinations": [
    "4027",
    "4026",
    "2789"
  ]
},
{
  "City": "Osubi",
  "Name": "Warri Airport",
  "Country": "Nigeria",
  "Longitude": "5.45",
  "Latitude": "5.31",
  "Id": "6972",
  "destinations": [
    "1229"
  ]
},
{
  "City": "Rockland",
  "Name": "Knox County Regional Airport",
  "Country": "United States",
  "Longitude": "-69.0992303",
  "Latitude": "44.0601111",
  "Id": "4026",
  "destinations": [
    "7252",
    "2789"
  ]
},
{
  "City": "Jacksn Hole",
  "Name": "Jackson Hole Airport",
  "Country": "United States",
  "Longitude": "-110.73775",
  "Latitude": "43.607333333",
  "Id": "4027",
  "destinations": [
    "4024",
    "2789",
    "7252"
  ]
},
{
  "City": "Flores",
  "Name": "Mundo Maya International",
  "Country": "Guatemala",
  "Longitude": "-89.866383",
  "Latitude": "16.913819",
  "Id": "4024",
  "destinations": [
    "4027"
  ]
}
]
